[
  {
    "id": "acc_1",
    "name": "Silk Board Junction",
    "frequency": 9,
    "center": { "lat": 12.9178, "lng": 77.6230 },
    "radius": 500,
    "description": "One of Bangalore's most accident-prone junctions"
  },
  {
    "id": "acc_2",
    "name": "Hebbal Flyover",
    "frequency": 8,
    "center": { "lat": 13.0358, "lng": 77.5970 },
    "radius": 600,
    "description": "High-speed corridor with frequent accidents"
  },
  {
    "id": "acc_3",
    "name": "KR Puram Bridge",
    "frequency": 8,
    "center": { "lat": 13.0050, "lng": 77.6960 },
    "radius": 500,
    "description": "Heavy traffic with accident history"
  },
  {
    "id": "acc_4",
    "name": "Marathahalli Bridge",
    "frequency": 7,
    "center": { "lat": 12.9568, "lng": 77.7010 },
    "radius": 400,
    "description": "Narrow bridge with high traffic volume"
  },
  {
    "id": "acc_5",
    "name": "Hosur Road - Electronic City",
    "frequency": 8,
    "center": { "lat": 12.8650, "lng": 77.6580 },
    "radius": 700,
    "description": "High speed road with frequent collisions"
  },
  {
    "id": "acc_6",
    "name": "Tumkur Road NH4",
    "frequency": 7,
    "center": { "lat": 13.0450, "lng": 77.5300 },
    "radius": 600,
    "description": "National highway stretch with heavy truck traffic"
  },
  {
    "id": "acc_7",
    "name": "Outer Ring Road Bellandur",
    "frequency": 7,
    "center": { "lat": 12.9300, "lng": 77.6750 },
    "radius": 500,
    "description": "Construction zone with poor road conditions"
  },
  {
    "id": "acc_8",
    "name": "Bannerghatta Road",
    "frequency": 6,
    "center": { "lat": 12.8900, "lng": 77.5970 },
    "radius": 600,
    "description": "Busy corridor with frequent minor accidents"
  },
  {
    "id": "acc_9",
    "name": "Mysore Road Flyover",
    "frequency": 7,
    "center": { "lat": 12.9580, "lng": 77.5380 },
    "radius": 400,
    "description": "Flyover merges causing collisions"
  },
  {
    "id": "acc_10",
    "name": "Bellary Road",
    "frequency": 6,
    "center": { "lat": 13.0150, "lng": 77.5870 },
    "radius": 500,
    "description": "Wide road with speeding issues"
  },
  {
    "id": "acc_11",
    "name": "Bommanahalli Signal",
    "frequency": 6,
    "center": { "lat": 12.9010, "lng": 77.6180 },
    "radius": 350,
    "description": "Dangerous signal with frequent red-light jumping"
  },
  {
    "id": "acc_12",
    "name": "Yeshwanthpur Circle",
    "frequency": 6,
    "center": { "lat": 13.0280, "lng": 77.5430 },
    "radius": 400,
    "description": "Complex intersection with multiple merge points"
  }
]
